City_ID,City,Lat,Lng,Max Temp,Humidity,Cloudiness,Wind Speed,Country,Date
0,saipan,15.2123,145.7545,298.23,65,75,7.72,MP,1706620174
1,heunghae,36.1095,129.3452,276.43,78,59,1.61,KR,1706620175
2,adamstown,-25.066,-130.1015,296.55,86,100,8.47,PN,1706620176
3,port alfred,-33.586,26.8833,296.63,80,100,2.24,ZA,1706620177
4,bethel,60.7922,-161.7558,244.16,83,0,3.6,US,1706620177
5,holualoa,19.6198,-155.9483,294.57,79,100,4.12,US,1706620178
6,thompson,55.7435,-97.8558,273.33,84,100,5.11,CA,1706620180
7,paphos,34.7768,32.4245,284.69,76,75,3.6,CY,1706620181
8,bamboo flat,11.7,92.7167,299.84,77,12,3.2,IN,1706620182
9,tsiombe,-25.3,45.4833,300.75,57,15,8.16,MG,1706620183
10,ponta delgada,37.7395,-25.6687,291.59,82,75,7.2,PT,1706620184
11,st. john's,47.5649,-52.7093,268.03,82,100,10.8,CA,1706620185
12,port-aux-francais,-49.3492,70.2194,277.07,71,81,15.37,TF,1706620186
13,keflavik,64.0049,-22.5624,271.39,93,100,12.35,IS,1706620187
14,kill devil hills,36.0307,-75.676,279.25,71,100,4.63,US,1706619918
15,yellowknife,62.4541,-114.3725,265.98,100,100,1.95,CA,1706620188
16,uturoa,-16.7289,-151.4448,301.43,75,97,2.92,PF,1706620189
17,blackmans bay,-43.0031,147.3169,289.83,75,0,2.67,AU,1706620190
18,papatowai,-46.5607,169.4707,282.65,92,14,2.95,NZ,1706620191
19,hithadhoo,-0.6,73.0833,301.3,74,25,3.07,MV,1706620192
20,crane,13.1049,-59.4486,300.23,73,6,5.36,BB,1706620193
21,atafu village,-8.5421,-172.5159,302.02,74,100,1.1,TK,1706620194
22,mokhsogollokh,61.3962,128.9381,237.24,100,63,1.73,RU,1706620195
23,myeik,12.4395,98.6003,298.37,85,61,2.87,MM,1706620195
24,mil'kovo,54.6961,158.6207,246.99,97,84,0.58,RU,1706620196
25,hawaiian paradise park,19.5933,-154.9731,294.28,89,0,2.57,US,1706620197
26,portland,-38.3462,141.6026,286.81,80,11,3.48,AU,1706620198
27,palmas,-10.1675,-48.3277,297.85,88,75,2.57,BR,1706620199
28,longyearbyen,78.2233,15.6469,270.3,68,75,6.17,SJ,1706620200
29,ilulissat,69.2167,-51.1,249.16,58,20,6.69,GL,1706619921
30,iqaluit,63.747,-68.5173,254.31,77,100,5.36,CA,1706620201
31,valparaiso,22.771,-103.5699,286.32,49,100,4.88,MX,1706620202
32,malango,-9.6952,159.7173,298.93,89,100,3.14,SB,1706620203
33,edinburgh of the seven seas,-37.0676,-12.3116,288.08,68,45,9.24,SH,1706620204
34,gdov,58.7442,27.8198,273.66,98,100,1.78,RU,1706620205
35,waitangi,-43.9535,-176.5597,290.27,97,100,1.79,NZ,1706620206
36,ust-nera,64.5697,143.237,238.56,100,98,0.55,RU,1706620207
37,rikaze,29.25,88.8833,272.66,19,84,2.86,CN,1706620208
38,san antonio de pale,-1.4068,5.6318,300.65,78,100,3.0,GQ,1706620209
39,west island,-12.1568,96.8225,301.14,65,6,4.12,CC,1706620210
40,puerto natales,-51.7299,-72.506,284.45,87,75,1.54,CL,1706620210
41,fale old settlement,-9.3852,-171.2468,302.48,74,91,2.49,TK,1706620211
42,stjordalshalsen,63.4681,10.9262,274.15,60,0,1.03,NO,1706620212
43,labasa,-16.4332,179.3645,300.26,91,97,3.52,FJ,1706620213
44,puerto ayora,-0.7402,-90.3138,298.5,84,98,3.37,EC,1706620214
45,north bondi,-33.8879,151.2808,297.18,86,100,1.54,AU,1706620215
46,new norfolk,-42.7826,147.0587,289.87,88,0,1.66,AU,1706620215
47,mizan teferi,6.9987,35.5888,301.94,41,98,0.95,ET,1706620216
48,holyhead,53.3062,-4.6321,282.11,76,20,4.63,GB,1706620217
49,alto araguaia,-17.3147,-53.2153,301.62,50,96,2.09,BR,1706620218
50,santiago de cao,-7.9589,-79.2392,297.22,78,75,2.06,PE,1706620219
51,berezovyy,51.669,135.6658,251.14,92,40,1.79,RU,1706620220
52,motygino,58.184,94.6934,246.11,98,18,1.79,RU,1706620220
53,tyuratam,45.6501,63.3116,267.9,91,100,5.0,KZ,1706620221
54,la passe,-4.3515,55.8308,302.17,70,100,5.34,SC,1706619904
55,grytviken,-54.2811,-36.5092,278.79,90,70,6.57,GS,1706620224
56,tura,64.2777,100.2185,247.21,89,100,1.47,RU,1706620225
57,constantia,-34.0314,18.4183,300.94,61,100,5.18,ZA,1706620225
58,saint-joseph,-21.3777,55.6169,301.04,80,51,4.32,RE,1706620226
59,siwa oasis,29.2032,25.5197,288.34,37,10,5.93,EG,1706620227
60,quesnel,52.9784,-122.4931,277.89,92,8,2.12,CA,1706620228
61,abra pampa,-22.7205,-65.697,285.49,60,14,1.85,AR,1706620229
62,midvagur,62.0511,-7.1939,280.61,93,100,12.86,FO,1706620230
63,aginskoye,55.2586,94.9079,245.16,100,65,0.67,RU,1706620230
64,stanley,-51.6938,-57.857,290.31,82,20,3.09,FK,1706620231
65,freeport,28.9541,-95.3597,285.37,81,0,2.68,US,1706620232
66,hilo,19.7299,-155.0907,297.19,64,0,2.57,US,1706620233
67,kargat,55.1956,80.2811,259.7,95,100,4.28,RU,1706620234
68,jabat,7.75,168.9751,298.96,88,100,9.15,MH,1706620235
69,bel ombre,-4.6167,55.4167,302.13,70,100,5.36,SC,1706620236
70,lebu,-37.6083,-73.6536,289.8,64,0,5.14,CL,1706620236
71,sadjoavato,-12.6167,49.35,301.51,68,28,0.29,MG,1706620237
72,tiksi,71.69,128.8647,243.96,99,54,2.43,RU,1706620238
73,ribeira grande,38.5167,-28.7,291.91,88,75,5.66,PT,1706620239
74,calama,-22.4567,-68.9237,293.79,33,0,1.65,CL,1706620240
75,dickinson,46.8792,-102.7896,276.49,87,0,4.12,US,1706620241
76,invercargill,-46.4,168.35,283.16,92,3,0.89,NZ,1706620241
77,vadso,70.0735,29.7494,274.24,75,0,13.89,NO,1706620242
78,usinsk,65.9939,57.5281,264.3,94,100,10.28,RU,1706620243
79,whitehorse,60.7161,-135.0538,271.54,97,100,2.9,CA,1706620244
80,tranovaho,-25.3,44.9667,301.2,51,10,8.68,MG,1706620245
81,haiku-pauwela,20.9219,-156.3051,297.06,88,40,6.17,US,1706620246
82,flying fish cove,-10.4217,105.6791,298.97,94,98,2.06,CX,1706620246
83,along,28.1695,94.8006,287.54,68,66,0.05,IN,1706620247
84,arraial do cabo,-22.9661,-42.0278,302.07,74,0,5.14,BR,1706620248
85,changping,40.2161,116.2347,269.97,67,8,1.11,CN,1706620249
86,kenai,60.5544,-151.2583,256.01,80,100,4.12,US,1706620250
87,port elizabeth,-33.9611,25.6149,295.99,76,100,4.0,ZA,1706620251
88,badger,64.8,-147.5333,247.29,74,75,0.0,US,1706620252
89,masterton,-40.9597,175.6575,288.76,79,100,3.15,NZ,1706620252
90,port mathurin,-19.6833,63.4167,300.72,79,100,8.38,MU,1706620253
91,daru,-9.0779,143.2089,300.26,86,100,2.07,PG,1706620254
92,east london,-33.0153,27.9116,297.53,73,100,7.4,ZA,1706619977
93,happy valley-goose bay,53.3038,-60.3258,246.99,87,12,2.31,CA,1706620257
94,trincomalee,8.5778,81.2289,299.6,84,28,5.58,LK,1706620257
95,mount pearl,47.5166,-52.7814,267.57,83,100,10.8,CA,1706620258
96,baruun-urt,46.6806,113.2792,240.95,96,11,1.19,MN,1706620259
97,carnarvon,-30.9683,22.133,303.89,14,100,4.32,ZA,1706620260
98,laguna,-28.4825,-48.7808,298.3,67,0,1.33,BR,1706620261
99,pueblo,38.2545,-104.6091,279.57,81,0,2.57,US,1706620262
100,howrah,-42.8873,147.4055,290.18,48,0,8.75,AU,1706620262
101,udachny,66.4299,112.4021,243.71,100,87,0.92,RU,1706620264
102,sanming,26.2486,117.6186,288.63,95,2,0.74,CN,1706620265
103,bilibino,68.0546,166.4372,239.19,100,100,1.28,RU,1706620266
104,sungai penuh,-2.0561,101.3913,294.33,98,100,1.18,ID,1706620267
105,necochea,-38.5545,-58.7396,303.03,39,0,5.1,AR,1706620268
106,galle,6.0461,80.2103,299.64,81,36,0.91,LK,1706620269
107,minas de marcona,-15.2119,-75.1103,292.75,80,93,5.14,PE,1706620270
108,jianshui,24.2774,101.224,280.75,60,0,1.82,CN,1706620271
109,arhavi,41.3512,41.3046,282.13,72,23,1.42,TR,1706620272
110,kodiak,57.7885,-152.4053,258.28,56,0,2.57,US,1706620272
111,hamilton,32.2949,-64.783,287.01,90,75,7.72,BM,1706620273
112,vila franca do campo,37.7167,-25.4333,291.42,99,34,3.19,PT,1706620274
113,san patricio,19.2253,-104.7045,296.15,78,0,3.09,MX,1706620275
114,port douglas,-16.4838,145.4673,301.67,85,84,2.15,AU,1706620276
115,businga,3.3386,20.8858,310.9,19,100,1.07,CD,1706620277
116,nogliki,51.7992,143.1387,253.31,98,93,2.68,RU,1706620278
117,opuwo,-18.0607,13.84,307.05,26,99,6.12,NA,1706620278
118,price,39.5994,-110.8107,272.74,80,0,2.06,US,1706620279
119,scarborough,11.1823,-60.7353,299.61,75,2,7.54,TT,1706620280
120,lompoc,34.6392,-120.4579,284.59,97,0,2.57,US,1706620281
121,sitia,35.2078,26.1047,284.18,58,81,12.18,GR,1706620282
122,bridgewater,44.3786,-64.5188,267.01,78,49,2.24,CA,1706620283
123,talnakh,69.4865,88.3972,254.93,81,99,5.24,RU,1706620283
124,viligili,0.7591,73.433,301.11,77,24,3.71,MV,1706620284
125,cabo san lucas,22.8909,-109.9124,300.32,41,40,13.89,MX,1706620285
126,guerrero negro,27.9689,-114.0443,289.42,64,5,2.21,MX,1706620286
127,aasiaat,68.7098,-52.8699,244.5,98,99,3.07,GL,1706620287
128,fort st. john,56.2499,-120.8529,278.22,80,100,6.49,CA,1706620288
129,lanxi,29.2159,119.4716,285.97,88,42,0.73,CN,1706620289
130,hermanus,-34.4187,19.2345,296.08,69,3,6.42,ZA,1706620289
131,shouguang,36.88,118.7375,277.73,84,12,3.05,CN,1706620219
132,remire-montjoly,4.9167,-52.2667,301.17,89,100,3.6,GF,1706620291
133,olyokminsk,60.3743,120.4203,236.42,100,39,1.23,RU,1706620292
134,ushuaia,-54.8108,-68.3159,285.26,76,40,1.54,AR,1706620293
135,szydlowiec,51.2282,20.8611,281.86,50,99,3.71,PL,1706620293
136,vorgashor,67.5836,63.794,258.65,95,100,7.66,RU,1706620294
137,rhinelander,45.6366,-89.4121,273.33,86,100,3.59,US,1706620295
138,lombardia,19.1581,-102.0511,292.33,41,100,1.52,MX,1706620296
139,newman,-23.3564,119.7355,308.87,29,65,7.78,AU,1706620297
140,muli,2.9167,73.5667,300.91,79,56,5.71,MV,1706620084
141,pong,19.1493,100.2752,294.27,82,1,2.05,TH,1706620298
142,roccella ionica,38.3212,16.3969,285.45,52,11,7.19,IT,1706620299
143,muroto-misakicho,33.2866,134.1683,284.78,70,99,2.41,JP,1706620300
144,castillos,-34.1987,-53.8592,297.76,50,90,2.61,UY,1706620301
145,bredasdorp,-34.5322,20.0403,299.62,52,74,7.58,ZA,1706620302
146,kurumkan,54.3209,110.3065,246.99,88,19,0.45,RU,1706620302
147,rongelap,11.1635,166.8941,299.18,79,100,8.63,MH,1706620303
148,camacupa,-12.0167,17.4833,300.0,52,32,1.79,AO,1706620304
149,westport,53.8,-9.5167,282.15,67,8,5.44,IE,1706620014
150,nemuro,43.3236,145.575,272.25,64,44,9.22,JP,1706620306
151,we,-20.9169,167.2646,297.92,84,96,2.52,NC,1706620307
152,afaahiti,-17.744,-149.3244,301.07,81,86,1.15,PF,1706620307
153,sinabang,2.4803,96.3801,300.7,80,92,2.24,ID,1706620308
154,kone,-21.0595,164.8658,298.23,80,47,1.2,NC,1706620309
155,buncrana,55.1333,-7.45,281.02,72,6,5.26,IE,1706620310
156,konarka,19.8976,86.1141,297.38,68,16,4.01,IN,1706620311
157,valdivia,-39.8142,-73.2459,292.45,43,0,0.41,CL,1706620052
158,avarua,-21.2075,-159.7755,298.18,100,75,1.03,CK,1706620312
159,nar'yan-mar,67.6387,53.0037,270.98,96,100,9.39,RU,1706620313
160,fray luis beltran,-39.3137,-65.76,302.42,37,100,3.04,AR,1706620314
161,kerikeri,-35.2268,173.9474,291.43,85,7,3.11,NZ,1706620315
162,bansi,27.1775,82.9344,288.85,46,0,1.62,IN,1706620316
163,cidreira,-30.1811,-50.2056,297.77,69,17,4.83,BR,1706620316
164,bangassou,4.7413,22.8184,311.79,15,99,0.9,CF,1706620317
165,college,64.8569,-147.8028,247.33,72,75,0.0,US,1706620048
166,sabang,5.8897,95.3164,301.21,77,30,7.33,ID,1706620319
167,kalabo,-14.9931,22.6793,301.87,49,100,3.52,ZM,1706620320
168,asifabad,19.3585,79.2842,299.39,31,11,1.14,IN,1706620321
169,aktau,50.2347,73.0666,258.95,93,100,1.59,KZ,1706620321
170,inhambane,-23.865,35.3833,303.14,70,40,5.14,MZ,1706620322
171,kalengwa,-13.4659,25.0027,300.72,61,98,1.02,ZM,1706620323
172,fortuna,40.5982,-124.1573,289.07,59,0,5.14,US,1706620324
173,margaret river,-33.955,115.076,289.66,83,0,5.56,AU,1706620325
174,sao joao da barra,-21.6403,-41.0511,304.2,81,87,2.2,BR,1706620326
175,benghazi,32.1149,20.0686,283.88,69,96,0.84,LY,1706620246
176,wailua homesteads,22.0724,-159.3768,294.68,89,100,3.09,US,1706620327
177,albany,-35.0269,117.8837,290.9,87,0,5.2,AU,1706620328
178,mejit,10.2753,170.8646,299.65,77,100,9.34,MH,1706620329
179,vilyuchinsk,52.9311,158.4047,261.3,80,89,4.08,RU,1706620330
180,maintirano,-18.0635,44.0295,302.19,60,0,5.03,MG,1706620331
181,thunder bay,48.382,-89.2502,272.72,86,97,3.55,CA,1706620331
182,port augusta,-32.496,137.7728,293.9,59,0,8.45,AU,1706620332
183,connell,46.6635,-118.8611,273.24,93,100,0.56,US,1706620333
184,sola,-13.8761,167.5517,299.59,86,100,1.92,VU,1706620334
185,mount gambier,-37.8318,140.7792,284.61,88,2,2.26,AU,1706620335
186,kodinsk,58.6063,99.174,244.21,100,16,0.78,RU,1706620336
187,filadelfia,-22.3394,-60.0316,306.41,44,0,2.76,PY,1706620337
188,richards bay,-28.783,32.0377,302.95,60,9,6.51,ZA,1706620338
189,extrema,-9.7714,-66.3558,300.61,79,75,1.43,BR,1706620339
190,bahia honda,22.9033,-83.1599,292.87,58,100,3.57,CU,1706620339
191,kongolo,-5.3853,27.0003,299.77,82,83,3.76,CD,1706620340
192,rosario del tala,-32.3029,-59.1455,304.97,34,5,1.17,AR,1706620341
193,bac lieu,9.2941,105.7278,298.2,82,92,5.3,VN,1706620342
194,gadzhiyevo,69.2551,33.3362,272.51,75,100,12.25,RU,1706620343
195,dudinka,69.4058,86.1778,255.16,92,99,10.23,RU,1706620343
196,wuyishan,27.76,118.0307,284.3,97,14,0.41,CN,1706620345
197,oualidia,32.7337,-9.0306,295.3,37,92,2.69,MA,1706620345
198,juli,-16.2167,-69.45,282.8,71,100,0.93,PE,1706620346
199,kapa'a,22.0752,-159.319,295.33,85,100,3.09,US,1706620347
200,brazzaville,-4.2661,15.2832,304.35,58,20,2.57,CG,1706620348
201,carinhanha,-14.3047,-43.765,301.84,60,53,1.51,BR,1706620349
202,illizi,26.4833,8.4667,292.87,25,0,7.32,DZ,1706620350
203,mata-utu,-13.2816,-176.1745,302.23,81,100,7.38,WF,1706620350
204,tshikapa,-6.4162,20.8,301.28,67,95,0.93,CD,1706620351
205,bonthe,7.5264,-12.505,304.65,54,0,3.98,SL,1706620352
206,susuman,62.7808,148.154,240.94,100,99,0.45,RU,1706620353
207,zapala,-38.8992,-70.0544,297.76,14,10,2.61,AR,1706620354
208,wuxue,29.8506,115.5525,284.54,93,100,0.73,CN,1706620355
209,moengo,5.6141,-54.4012,301.46,65,97,2.59,SR,1706620355
210,arthur's town,24.6224,-75.6715,294.76,60,94,5.96,BS,1706620356
211,luganville,-15.5199,167.1624,300.08,81,100,0.86,VU,1706620357
212,yabassi,4.457,9.9682,313.33,24,56,0.98,CM,1706620358
213,graaff-reinet,-32.2522,24.5308,303.11,42,100,5.91,ZA,1706620359
214,yuxia,34.0615,108.6291,279.1,67,1,0.87,CN,1706620360
215,saynshand,44.8824,110.1163,247.37,96,18,2.01,MN,1706620360
216,ji'an,27.1172,114.9793,285.52,91,93,1.7,CN,1706620361
217,olonkinbyen,70.9221,-8.7187,269.06,90,100,11.5,SJ,1706620362
218,monrovia,6.3005,-10.7969,305.02,64,100,3.5,LR,1706620363
219,vallenar,-28.5762,-70.7594,298.11,58,0,2.47,CL,1706620364
220,tucuma,-0.1833,-50.05,298.32,84,100,2.28,BR,1706620365
221,mogocha,53.7342,119.7652,248.81,98,100,1.42,RU,1706620365
222,tazovsky,67.4715,78.7162,253.8,93,72,7.68,RU,1706620366
223,quesada,37.8434,-3.0656,288.33,38,10,0.62,ES,1706620367
224,oriximina,-1.7656,-55.8661,300.38,74,95,2.84,BR,1706620368
225,bukama,-9.2044,25.8548,299.32,87,98,1.83,CD,1706620369
226,maumere,-8.6199,122.2111,300.29,81,82,2.28,ID,1706620370
227,isla vista,34.4133,-119.861,291.94,68,0,0.0,US,1706620371
228,mankato,44.1591,-94.0092,275.53,94,100,5.14,US,1706620371
229,oviedo,28.67,-81.2081,282.73,89,0,2.06,US,1706620372
230,la cruz,23.9213,-106.8925,293.43,47,64,2.35,MX,1706620373
231,truro,45.3669,-63.2654,266.45,78,32,4.02,CA,1706620000
232,anadyr,64.7342,177.5103,242.13,74,20,4.0,RU,1706620374
233,lihue,21.9812,-159.3721,294.93,86,100,3.09,US,1706620375
234,waingapu,-9.6567,120.2641,300.06,79,66,0.97,ID,1706620376
235,pangkalan brandan,4.0238,98.2782,298.53,85,94,0.56,ID,1706620377
236,magadan,59.5638,150.8035,247.87,83,9,3.14,RU,1706620378
237,belyy yar,58.4447,85.0425,254.94,96,31,2.66,RU,1706620379
238,iskateley,67.6803,53.1512,270.94,96,100,9.39,RU,1706620380
239,tamiahua,21.2788,-97.4462,289.78,75,100,1.02,MX,1706620381
240,tuy hoa,13.0955,109.3209,295.65,90,85,2.45,VN,1706620381
241,vernon,50.0261,-126.3616,278.39,98,80,1.37,CA,1706620382
242,tabuk,28.3998,36.5715,290.18,27,0,0.0,SA,1706620383
243,show low,34.2542,-110.0298,270.31,86,0,0.0,US,1706620384
244,nova vicosa,-17.8919,-39.3719,301.99,67,97,4.97,BR,1706620385
245,port blair,11.6661,92.7464,299.69,77,15,3.16,IN,1706620386
246,nago,26.615,127.9854,294.16,73,100,5.75,JP,1706620386
247,ulladulla,-35.3591,150.4725,292.25,94,65,2.07,AU,1706620387
248,staryy sambir,49.4386,23.0006,278.11,65,38,2.24,UA,1706620388
249,klyuchi,52.253,79.1687,257.75,94,26,3.2,RU,1706620389
250,shushtar,32.0497,48.8484,293.78,30,12,1.3,IR,1706620390
251,bestobe,52.498,73.0959,255.38,97,73,2.79,KZ,1706620390
252,druskininkai,54.0157,23.987,277.33,74,100,3.22,LT,1706620391
253,sumberpucung,-8.1586,112.4829,296.34,96,100,0.84,ID,1706620392
254,georgetown,-7.9286,-14.4119,303.49,58,20,5.14,SH,1706620393
255,broome,-17.9554,122.2392,302.16,74,31,4.12,AU,1706620394
256,reggane,26.7158,0.1714,297.1,21,0,6.96,DZ,1706620395
257,betong,5.7743,101.0723,295.83,96,100,1.31,TH,1706620395
258,port lavaca,28.615,-96.6261,283.74,93,0,0.0,US,1706620396
259,nurota,40.5614,65.6886,273.58,86,99,7.47,UZ,1706620397
260,zhangjiakou,40.81,114.8794,266.03,86,89,2.74,CN,1706620398
261,tazacorte,28.6419,-17.9339,294.53,60,0,2.06,ES,1706620399
262,horodnya,51.8909,31.5974,273.06,87,99,3.42,UA,1706620291
263,akureyri,65.6826,-18.0907,267.32,85,61,5.7,IS,1706620140
264,sept-iles,50.2001,-66.3821,253.18,63,20,2.57,CA,1706620401
265,coquimbo,-29.9533,-71.3395,292.81,83,35,1.38,CL,1706620402
266,twon-brass,4.3123,6.2409,302.0,68,54,5.56,NG,1706620403
267,port lincoln,-34.7263,135.8744,289.39,69,0,7.02,AU,1706620404
268,jamestown,-15.9387,-5.7168,294.94,62,80,1.62,SH,1706620320
269,skovorodino,53.9847,123.9403,242.37,100,82,1.19,RU,1706620405
270,gambela,8.25,34.5833,311.04,23,99,3.67,ET,1706620406
271,hotan,37.1075,79.9355,272.88,50,37,2.44,CN,1706620407
272,izki,22.9333,57.7667,301.33,29,66,3.9,OM,1706620408
273,n'djamena,12.1067,15.0444,306.13,10,0,4.63,TD,1706620408
274,kozova,49.4354,25.1509,274.79,78,23,1.98,UA,1706620144
275,isafjordur,66.0748,-23.135,270.0,86,100,1.54,IS,1706620410
276,papao,-17.75,-149.55,300.97,80,100,1.98,PF,1706620411
277,tanjung selor,2.8375,117.3653,297.74,91,90,1.36,ID,1706620412
278,port saint john's,-31.6229,29.5448,299.14,76,93,5.05,ZA,1706620412
279,ilomantsi,62.6716,30.9328,272.42,90,9,3.48,FI,1706620413
280,thinadhoo,0.5306,72.9997,301.11,77,23,3.74,MV,1706620414
281,ancud,-41.8707,-73.8162,288.34,62,0,1.37,CL,1706620415
282,posto fiscal rolim de moura,-13.0827,-62.2773,303.47,59,77,1.42,BR,1706620416
283,urmary,55.6789,47.944,273.53,88,100,5.89,RU,1706620417
284,walvis bay,-22.9575,14.5053,295.42,50,25,8.2,NA,1706620417
285,saint-philippe,-21.3609,55.7679,299.13,80,35,4.82,RE,1706620418
286,bayganin,48.6897,55.8751,265.64,95,100,4.24,KZ,1706620419
287,zhelezinka,53.5388,75.3133,253.18,100,57,2.66,KZ,1706620420
288,yerofey pavlovich,53.9631,121.9581,246.92,92,100,1.21,RU,1706620421
289,alice springs,-23.6975,133.8836,306.57,20,2,3.6,AU,1706620422
290,lubang,13.8584,120.124,299.23,74,1,10.6,PH,1706620422
291,starobaltachevo,56.0017,55.928,267.34,96,100,5.13,RU,1706620423
292,ndele,8.4109,20.6473,311.14,9,2,2.69,CF,1706620424
293,bargara,-24.8148,152.4626,298.25,99,100,3.68,AU,1706620425
294,petropavlovsk-kamchatsky,53.0444,158.6508,260.48,94,75,4.0,RU,1706620426
295,i-n-salah,27.1935,2.4607,296.52,21,0,10.22,DZ,1706620427
296,west bay,19.3667,-81.4167,296.19,56,75,4.63,KY,1706620427
297,kruisfontein,-34.0033,24.7314,299.2,53,100,5.8,ZA,1706620428
298,al 'alamayn,30.8301,28.955,287.05,47,90,8.91,EG,1706620429
299,boyolangu,-8.1181,111.8935,298.27,91,78,0.45,ID,1706620430
300,rio preto da eva,-2.698,-59.7017,303.02,65,39,2.19,BR,1706620431
301,cockburn town,24.0518,-74.5314,294.94,61,100,5.76,BS,1706620432
302,neryungri,56.6664,124.6383,243.22,98,100,1.9,RU,1706620432
303,makar'yev,57.885,43.8049,273.3,85,13,5.16,RU,1706620433
304,galliano,29.4422,-90.2993,280.93,76,100,1.28,US,1706620434
305,kalmunai,7.409,81.8347,299.42,83,12,3.57,LK,1706620435
306,burutu,5.3533,5.5083,309.3,31,94,3.27,NG,1706620436
307,tommot,58.9572,126.2916,235.09,99,61,0.92,RU,1706620436
308,hoxtolgay,46.5187,86.0021,260.27,89,100,1.03,CN,1706620437
309,san andros,25.0667,-78.05,292.42,62,100,4.73,BS,1706620438
310,vyazemskiy,47.5376,134.7556,248.24,94,34,1.47,RU,1706620439
311,punta arenas,-53.1548,-70.9113,283.27,81,75,5.14,CL,1706620440
312,boguchany,58.3814,97.4531,244.74,100,18,0.89,RU,1706620441
313,zeya,53.736,127.257,246.27,99,99,1.45,RU,1706620441
314,three points,32.0767,-111.3137,286.58,44,36,1.14,US,1706620442
315,yangambi,0.7676,24.4397,312.3,20,38,0.39,CD,1706620443
316,gimbi,9.1703,35.8349,300.13,28,98,1.49,ET,1706620444
317,shahpur,23.8937,79.0507,294.04,28,100,1.15,IN,1706620445
318,salekhard,66.53,66.6019,258.13,95,100,5.41,RU,1706620364
319,chonchi,-42.6239,-73.775,293.54,49,0,0.96,CL,1706620446
320,utrik,11.2278,169.8474,299.26,77,100,8.97,MH,1706620447
321,yuzhno-sakhalinsk,46.9541,142.736,261.2,85,40,0.0,RU,1706620293
322,york,40.8681,-97.592,273.54,100,0,0.0,US,1706620449
323,suva,-18.1416,178.4415,297.86,100,75,2.06,FJ,1706620450
324,gizo,-8.103,156.8419,298.81,91,100,7.51,SB,1706620450
325,greenland,13.2581,-59.5776,300.07,73,6,5.5,BB,1706620451
326,gilgit,35.9187,74.3125,280.46,57,100,1.06,PK,1706620452
327,qianzhou,28.3193,109.7335,280.8,97,100,0.67,CN,1706620453
328,inongo,-1.9275,18.2881,301.92,60,76,1.41,CD,1706620454
329,colares,38.7992,-9.4469,291.18,80,0,6.71,PT,1706620455
330,saudarkrokur,65.7461,-19.6394,268.97,85,100,6.95,IS,1706620455
331,beitbridge,-22.2167,30.0,307.83,26,11,5.58,ZW,1706620456
332,tangalle,6.0234,80.7974,299.05,88,43,3.31,LK,1706620457
333,pangody,65.85,74.4859,253.12,94,8,8.04,RU,1706620458
334,imbituba,-28.24,-48.6703,296.96,67,0,1.41,BR,1706620459
335,qaqortoq,60.7184,-46.0356,248.58,77,0,2.82,GL,1706620459
336,adh dhibiyah,26.027,43.157,294.43,15,0,5.56,SA,1706620460
337,khovd,48.0056,91.6419,252.56,93,12,0.35,MN,1706620461
338,ahau,-12.5,177.05,300.57,85,100,6.5,FJ,1706620462
339,enewetak,11.3474,162.3373,299.75,69,53,9.47,MH,1706620463
340,carutapera,-1.195,-46.02,300.73,77,100,1.71,BR,1706620464
341,rio grande,-53.7877,-67.7095,284.2,82,0,3.09,AR,1706620465
342,villa gesell,-37.2639,-56.973,300.4,58,0,3.21,AR,1706620465
343,podgorenskiy,50.405,39.643,270.75,89,95,5.81,RU,1706620466
344,nuuk,64.1835,-51.7216,257.49,60,40,7.2,GL,1706619855
345,tympaki,35.0729,24.7685,283.13,71,62,6.26,GR,1706620468
346,pisco,-13.7103,-76.2054,297.09,78,95,1.03,PE,1706620469
347,pak chong,14.708,101.4161,300.95,55,100,3.41,TH,1706620469
348,cairns city,-16.9192,145.7741,302.1,95,40,0.0,AU,1706620110
349,kataragama,6.4134,81.3346,298.98,85,10,3.88,LK,1706620471
350,undurkhaan,47.3194,110.6556,242.44,99,16,0.63,MN,1706620472
351,osakarovka,50.5622,72.5709,258.56,90,100,2.73,KZ,1706620473
352,coyutla,20.2472,-97.6582,291.05,87,100,0.73,MX,1706620474
353,warwick,-28.219,152.0344,295.1,94,28,4.02,AU,1706620474
354,vodnyy,63.5046,53.4095,272.82,95,100,4.61,RU,1706620475
355,saldanha,-33.0117,17.9442,295.14,69,100,5.93,ZA,1706620392
356,al basrah al qadimah,30.5032,47.8151,295.12,28,100,2.55,IQ,1706620208
357,eyl,7.9803,49.8164,301.23,57,92,9.75,SO,1706620478
358,tevragh zeina,18.0989,-15.9885,304.15,22,0,7.2,MR,1706620478
359,puerto san carlos,24.7887,-112.105,292.06,70,100,4.32,MX,1706620479
360,tchintabaraden,15.8969,5.7985,301.99,10,89,7.23,NE,1706620480
361,kichmengskiy gorodok,59.9816,45.7854,272.01,94,100,4.92,RU,1706620481
362,san andres,12.5832,-81.7064,300.1,69,20,5.14,CO,1706620482
363,shenjiamen,29.9576,122.298,283.85,96,91,1.58,CN,1706620483
364,gaspe,48.8334,-64.4819,260.1,84,40,1.54,CA,1706620483
365,ishigaki,24.3448,124.1572,292.22,88,93,1.03,JP,1706620484
366,junin,-34.5838,-60.9433,304.62,29,0,2.59,AR,1706620357
367,gladstone,-23.8485,151.2577,297.5,94,100,2.06,AU,1706620486
368,nikel,69.4129,30.222,272.25,91,100,9.5,RU,1706620487
369,zhigulevsk,53.3997,49.4953,270.47,97,100,4.68,RU,1706620382
370,mandan,46.8267,-100.8896,271.49,94,0,3.09,US,1706620488
371,yanam,16.7331,82.2136,294.22,73,2,2.3,IN,1706620489
372,totness,5.8762,-56.3257,301.2,73,94,4.48,SR,1706620490
373,talara,-4.5807,-81.2748,299.61,78,0,6.17,PE,1706620206
374,bafq,31.6035,55.4025,287.27,25,6,5.15,IR,1706620492
375,innisfil,44.3001,-79.6496,273.16,87,100,5.56,CA,1706620492
376,tanjung pandan,-2.7335,107.6348,299.7,84,100,4.29,ID,1706620493
377,tasbuget,44.7702,65.5546,268.16,86,75,5.0,KZ,1706620494
378,punta cana,18.5818,-68.4043,299.02,78,40,0.0,DO,1706620473
379,santiago de cuba,20.0208,-75.8267,294.2,68,40,6.17,CU,1706620496
380,dryden,49.7833,-92.7503,270.31,100,100,2.57,CA,1706620497
381,tindouf,27.6711,-8.1474,295.81,16,6,7.97,DZ,1706620213
382,miguel ahumada,30.6186,-106.5122,283.85,44,38,1.25,MX,1706620498
383,la ronge,55.1001,-105.2842,271.29,93,20,1.54,CA,1706620499
384,dapa,9.7594,126.0531,299.43,84,100,6.48,PH,1706620500
385,berdigestyakh,62.0984,126.6957,237.07,99,62,1.56,RU,1706620501
386,santo antonio do ica,-3.1022,-67.9397,299.36,90,99,1.32,BR,1706620501
387,sitka,57.0532,-135.3309,279.09,87,100,6.17,US,1706620502
388,jalalpur,26.3116,82.7386,289.31,48,67,1.55,IN,1706620503
389,howard springs,-12.4958,131.0445,298.1,96,100,1.07,AU,1706620504
390,saint-pierre,46.7791,-56.1773,263.92,86,100,14.92,PM,1706620505
391,yuzhno-kurilsk,44.0273,145.8615,273.64,77,93,8.19,RU,1706620506
392,linxia chengguanzhen,35.6003,103.2064,272.23,39,83,0.74,CN,1706620507
393,bubaque,11.2833,-15.8333,299.19,44,13,1.87,GW,1706620508
394,salinopolis,-0.6136,-47.3561,298.66,85,100,5.0,BR,1706620508
395,gueltat zemmour,25.1428,-12.3717,297.94,10,0,5.6,MR,1706620509
396,weno,7.4465,151.8414,301.19,72,100,8.96,FM,1706620510
397,sinan,34.8262,126.1086,280.21,76,100,3.11,KR,1706620511
398,soio,-6.1349,12.3689,301.91,77,100,3.31,AO,1706620512
399,whittlesea,-32.1759,26.8244,304.44,40,22,7.5,ZA,1706620513
400,zyryanovsk,49.7265,84.2732,253.48,98,100,0.93,KZ,1706620513
401,quixeramobim,-5.1992,-39.2928,305.64,44,54,3.82,BR,1706620514
402,alta,69.9689,23.2717,273.74,84,100,2.06,NO,1706620515
403,cromer,52.9312,1.2989,280.41,87,100,6.26,GB,1706620516
404,krasnogorskiy,56.1525,48.3258,273.94,88,100,4.62,RU,1706620516
405,buala,-8.145,159.5921,298.49,93,100,4.33,SB,1706620517
406,acarau,-2.8856,-40.12,304.38,55,27,6.15,BR,1706620518
407,shanting,35.0753,117.4578,276.59,93,43,1.74,CN,1706620519
408,abatskoye,56.2875,70.4555,259.17,97,86,3.01,RU,1706620520
409,alaghsas,17.0187,8.0168,299.09,11,0,11.32,NE,1706620520
410,antonio enes,-16.2325,39.9086,301.7,66,91,4.65,MZ,1706620521
411,north bend,43.4065,-124.2243,285.29,100,100,2.06,US,1706620522
412,zhangjiakou shi xuanhua qu,40.6103,115.0447,267.49,84,74,2.67,CN,1706620523
413,ola,59.5782,151.2982,247.39,85,17,3.82,RU,1706620523
414,lata,-10.725,165.7972,298.77,88,100,1.98,SB,1706620524
415,george town,19.2866,-81.3744,296.16,56,75,4.63,KY,1706620525
416,luderitz,-26.6481,15.1538,299.63,50,39,8.23,NA,1706620526
417,al 'aziziyah,32.9094,45.0636,291.99,17,2,2.12,IQ,1706620526
418,shimoda,34.6765,138.9446,281.78,62,33,1.06,JP,1706620527
419,danville,34.4145,-87.0875,273.13,83,11,1.97,US,1706620528
420,mar del plata,-38.0004,-57.5562,300.89,63,0,8.94,AR,1706620529
421,fort bragg,39.4457,-123.8053,289.75,80,100,3.11,US,1706620530
422,sittwe,20.1462,92.8983,294.64,58,89,5.66,MM,1706620531
423,ayas,40.0193,32.3322,274.3,39,0,7.77,TR,1706620531
424,floro,61.5996,5.0328,276.19,70,0,3.6,NO,1706620532
425,chukhloma,58.7538,42.6832,273.76,86,7,5.36,RU,1706620533
426,mulayjah,27.271,48.4242,298.88,32,5,3.7,SA,1706620534
427,qacha's nek,-30.1154,28.6894,300.59,31,7,6.34,LS,1706620535
428,nuku'alofa,-21.1394,-175.2018,299.33,94,75,1.54,TO,1706620535
429,villa de arista,22.6425,-100.8481,281.59,72,100,0.03,MX,1706620536
430,kudahuvadhoo,2.6708,72.8944,300.95,78,28,5.04,MV,1706620537
431,luanda,-8.8368,13.2343,303.15,71,75,4.63,AO,1706620401
432,formosa,-26.1849,-58.1731,306.45,51,0,1.03,AR,1706620539
433,nova sintra,14.8714,-24.6956,294.49,63,7,7.78,CV,1706620539
434,boksitogorsk,59.4741,33.8485,272.37,95,98,2.14,RU,1706620540
435,mugia,43.1041,-9.2179,291.99,71,100,4.7,ES,1706620541
436,phan rang-thap cham,11.5643,108.9886,295.18,91,98,3.41,VN,1706620542
437,marsh harbour,26.5412,-77.0636,292.95,59,100,5.21,BS,1706620543
438,shuangcheng,45.35,126.2833,254.97,95,100,3.59,CN,1706620544
439,ulaangom,49.9811,92.0667,240.68,95,25,1.26,MN,1706620544
440,al kharijah,25.4514,30.5464,290.81,23,0,6.27,EG,1706620545
441,raduzhny,62.0961,77.475,253.04,97,41,4.19,RU,1706620421
442,nizhnevartovsk,60.9344,76.5531,252.6,84,20,5.0,RU,1706620278
443,pyhajarvi,67.0701,27.2176,275.1,84,100,7.62,FI,1706620547
444,buka,-5.4326,154.671,301.34,80,100,2.01,PG,1706620548
445,hwange,-18.3645,26.4988,307.51,31,60,3.67,ZW,1706620549
446,santana,32.8,-16.8833,292.04,80,20,1.54,PT,1706620550
447,pont rouge,48.8833,-72.0825,252.31,98,90,1.11,CA,1706620550
448,smithers,54.7804,-127.1743,279.33,81,100,3.6,CA,1706620551
449,jombang,-7.546,112.2331,297.07,96,95,1.29,ID,1706620552
450,morant bay,17.8815,-76.4093,299.94,79,20,2.09,JM,1706620553
451,shalqar,47.8333,59.6,264.16,88,100,2.16,KZ,1706620554
452,hadibu,12.6488,54.019,300.15,64,100,5.24,YE,1706620554
453,meizhou,24.2886,116.1177,291.35,88,33,1.1,CN,1706620555
454,challapata,-18.9021,-66.7705,286.17,54,94,2.16,BO,1706620556
455,ambovombe,-25.1784,46.0872,299.1,66,22,9.37,MG,1706620557
456,shahin dezh,36.6793,46.5669,276.97,59,100,2.15,IR,1706620557
457,iquitos,-3.7491,-73.2538,300.14,94,0,1.54,PE,1706620558
458,puerto santa,-8.9877,-78.6473,296.64,85,98,2.42,PE,1706620559
459,devon,53.3668,-113.7353,282.87,69,100,6.17,CA,1706620480
460,nalgonda,17.0544,79.2671,298.82,34,7,2.62,IN,1706620561
461,sombrio,-29.1139,-49.6167,300.36,69,0,1.59,BR,1706620561
462,rakops,-21.0226,24.3605,307.63,27,99,4.11,BW,1706620562
463,makurdi,7.7338,8.5214,311.23,10,96,3.81,NG,1706620563
464,kenora,49.7674,-94.4899,270.68,100,100,2.57,CA,1706620564
465,paraiso,18.4012,-93.2141,292.99,69,26,1.81,MX,1706620565
466,savave village,-8.0273,178.3135,302.14,79,100,7.49,TV,1706620565
467,wynyard,-40.9897,145.7262,286.89,78,0,4.5,AU,1706620566
468,seremban,2.7297,101.9381,300.88,90,33,1.7,MY,1706620567
469,marakkanam,12.1921,79.9419,298.24,72,100,5.5,IN,1706620568
470,lhokseumawe,5.1801,97.1507,299.77,83,57,2.8,ID,1706620568
471,dedougou,12.4634,-3.4608,306.73,8,61,4.44,BF,1706620569
472,blenheim,-41.516,173.9528,285.11,89,36,2.08,NZ,1706620570
473,nikolayevsk-on-amure,53.1466,140.7229,253.11,99,94,1.32,RU,1706620571
474,sorong,-0.8796,131.261,300.6,83,97,2.65,ID,1706620572
475,yermakovskoye,53.2755,92.4002,255.11,100,82,0.29,RU,1706620572
476,severo-yeniseyskiy,60.3755,93.0302,247.39,98,86,1.79,RU,1706620573
477,mahibadhoo,3.7571,72.9689,300.53,80,88,6.57,MV,1706620574
478,punta alta,-38.8759,-62.0736,299.82,58,100,0.39,AR,1706620575
479,whyalla stuart,-33.0249,137.5247,293.2,60,0,8.93,AU,1706620575
480,toledo,7.3098,-72.483,292.78,64,49,1.33,CO,1706620576
481,kapuskasing,49.4169,-82.4331,270.2,100,75,2.06,CA,1706620577
482,katsuura,35.1462,140.3151,283.33,68,78,2.09,JP,1706620578
483,aral,46.8017,61.6631,263.24,91,12,4.07,KZ,1706620579
484,arno,7.0669,171.5541,299.09,89,100,3.09,MH,1706620579
485,san jose village,14.9682,145.62,299.55,73,41,11.8,MP,1706620580
486,hasaki,35.7333,140.8333,277.37,53,11,3.3,JP,1706620581
487,fisterra,42.9049,-9.2629,291.9,74,100,4.94,ES,1706620582
488,phan thiet,10.9289,108.1021,296.63,86,40,5.9,VN,1706620582
489,brookings,42.0526,-124.284,286.71,89,75,2.06,US,1706620583
490,tselinnoye,54.5011,63.6736,257.35,98,63,3.16,RU,1706620362
491,moyynkum,44.2846,72.9392,270.71,95,100,2.41,KZ,1706620585
492,puerto baquerizo moreno,-0.9017,-89.6102,298.62,84,100,4.71,EC,1706620586
493,ketchikan,55.3418,-131.6476,281.41,93,100,7.72,US,1706620586
494,simdega,22.6152,84.5021,293.03,35,100,2.79,IN,1706620587
495,al balyana,26.2357,32.0035,290.62,24,0,6.61,EG,1706620588
496,goondiwindi,-28.5471,150.3055,297.0,80,1,5.25,AU,1706620589
497,doullens,50.1572,2.3402,283.46,69,70,6.83,FR,1706620589
498,aripuana,-9.1667,-60.6333,301.41,68,50,1.31,BR,1706620590
499,trabzon,41.005,39.7269,280.94,66,40,1.54,TR,1706620294
500,cleveland,33.744,-90.7248,281.13,91,11,3.12,US,1706620592
501,radviliskis,55.8167,23.5333,276.18,81,0,3.09,LT,1706620592
502,vicuna,-30.0354,-70.7127,300.56,53,1,2.23,CL,1706620593
503,jieshou,33.2634,115.3611,278.82,80,98,1.35,CN,1706620594
504,yaren,-0.5508,166.9252,302.08,73,100,6.76,NR,1706620595
505,lazaro cardenas,30.5282,-115.9262,288.13,58,0,1.53,MX,1706620595
506,playa del ingles,27.7567,-15.5787,298.01,43,100,3.98,ES,1706620596
507,aswan,24.0908,32.8994,292.38,25,0,5.91,EG,1706620597
508,vorkuta,67.4988,64.0525,259.49,95,100,6.37,RU,1706620598
509,novo aripuana,-5.1206,-60.3797,301.14,78,90,1.6,BR,1706620598
510,tanda,7.8034,-3.1683,311.1,9,5,1.49,CI,1706620599
511,chegdomyn,51.1285,133.0083,246.59,99,100,0.84,RU,1706620600
512,charlottetown,46.2346,-63.1256,266.59,74,100,9.77,CA,1706620601
513,porto novo,17.0197,-25.0647,298.15,54,0,6.07,CV,1706620602
514,kununurra,-15.7783,128.7421,301.12,89,68,4.12,AU,1706620602
515,mandalgovi,45.7625,106.2708,249.01,91,13,2.14,MN,1706620603
516,pingzhuang,42.0372,119.2889,261.73,88,100,4.9,CN,1706620604
517,sisimiut,66.9395,-53.6735,246.74,86,40,5.69,GL,1706620605
518,tolanaro,-25.0325,46.9833,298.82,68,88,5.31,MG,1706620606
519,la'ie,21.6455,-157.9225,299.12,95,3,0.89,US,1706620606
520,tidjikja,18.5564,-11.4271,300.18,8,0,8.92,MR,1706620607
521,taroa,8.7058,171.2275,299.65,86,100,10.08,MH,1706620608
522,taizhou,32.4907,119.9081,281.16,95,97,2.85,CN,1706620609
523,gorontalo,0.5375,123.0625,298.19,93,38,1.96,ID,1706620609
524,cuito,-12.3833,16.9333,299.23,49,58,2.78,AO,1706620610
525,hobart,44.4993,-88.1499,275.48,91,100,2.57,US,1706620611
526,murashi,59.3999,48.9615,272.29,91,94,5.61,RU,1706620612
527,martapura,-3.4109,114.8642,299.26,94,20,0.0,ID,1706620613
528,jiexiu,37.0244,111.9125,275.41,67,0,1.98,CN,1706620494
529,chibougamau,49.9168,-74.3659,257.94,85,100,3.6,CA,1706620614
530,gualaceo,-2.8926,-78.7781,288.02,94,100,1.94,EC,1706620615
531,platteville,42.7342,-90.4785,276.01,81,100,4.12,US,1706620616
532,kingston,-29.0546,167.9663,294.38,68,75,4.63,NF,1706620616
533,nabire,-3.3599,135.5007,298.92,90,100,1.16,ID,1706620617
534,zelenoborskiy,66.845,32.3622,275.2,84,100,6.5,RU,1706620618
535,nioki,-2.7204,17.69,307.43,43,100,0.92,CD,1706620619
536,ahfir,34.9537,-2.1003,290.49,56,11,3.03,MA,1706620620
537,kiruna,67.8557,20.2251,275.66,70,0,10.8,SE,1706620620
538,tervel,43.7479,27.4091,275.92,61,96,4.83,BG,1706620621
539,luwuk,-0.9516,122.7875,299.96,86,30,1.05,ID,1706620622
540,tacuarembo,-31.7169,-55.9811,299.89,60,9,1.91,UY,1706620623
541,codrington,17.6333,-61.8333,299.21,75,0,6.04,AG,1706620623
542,mareeba,-16.991,145.4231,299.52,85,94,1.29,AU,1706620624
543,corner brook,48.95,-57.952,253.01,81,6,1.4,CA,1706620625
544,general conesa,-40.1041,-64.4559,300.42,40,56,2.08,AR,1706620626
545,yichang,30.7144,111.2847,283.34,71,100,0.65,CN,1706620598
546,roma,-26.5674,148.7875,297.58,89,100,5.45,AU,1706620627
547,gandajika,-6.745,23.9533,294.57,93,100,1.47,CD,1706620628
548,pacific grove,36.6177,-121.9166,285.18,92,0,2.06,US,1706620629
549,joshimath,30.5554,79.5644,277.44,56,19,1.09,IN,1706620630
550,shifnal,52.6704,-2.3725,281.14,81,75,4.12,GB,1706620334
551,vuktyl,63.8567,57.3094,262.65,92,100,6.71,RU,1706620631
552,male,4.1752,73.5092,303.12,74,40,6.17,MV,1706620632
553,menongue,-14.6585,17.691,301.43,45,94,2.51,AO,1706620633
554,am timan,11.0297,20.2827,307.81,9,0,3.11,TD,1706620633
555,labytnangi,66.6572,66.4183,258.2,96,100,4.26,RU,1706620634
556,hangzhou,30.2937,120.1614,283.1,79,84,1.38,CN,1706620635
557,santa terezinha,-10.4706,-50.5136,300.69,77,99,1.1,BR,1706620636
558,uacu cungo,-11.3567,15.1172,298.24,74,100,0.9,AO,1706620637
559,morris,45.5861,-95.9139,274.93,97,100,6.17,US,1706620430
560,trujillo,4.2122,-76.3195,292.72,93,100,0.4,CO,1706620639
561,viedma,-40.8135,-62.9967,299.54,50,2,0.71,AR,1706620640
562,ladnun,27.6531,74.3999,293.44,30,100,2.31,IN,1706620640
563,taltal,-25.4071,-70.4855,294.16,76,30,1.16,CL,1706620641
564,shevchenkove,49.6959,37.1735,273.8,71,39,5.04,UA,1706620642
565,nizhnesortymskiy,62.4397,71.7603,252.01,100,79,5.25,RU,1706620643
566,kilinochchi,9.3961,80.3982,299.32,75,99,3.82,LK,1706620643
567,belmonte,-15.8613,-38.8798,302.18,68,65,4.48,BR,1706620644
568,sodra sandby,56.5667,16.6167,277.07,92,100,3.16,SE,1706620645
569,lerwick,60.1534,-1.1443,281.15,81,95,9.34,GB,1706620646
570,chivhu,-19.0211,30.8922,300.36,33,0,4.86,ZW,1706620646
571,chaykovskiy,56.7686,54.1148,268.58,96,100,2.64,RU,1706620647
572,kristiansund,63.1105,7.728,278.28,45,0,1.54,NO,1706620648
573,macau,22.2006,113.5461,292.04,88,40,1.54,MO,1706620649
574,pitimbu,-7.4706,-34.8086,305.48,62,5,5.19,BR,1706620650
575,tarauaca,-8.1614,-70.7656,298.85,89,100,0.5,BR,1706620650
576,bella union,-30.2597,-57.5992,301.11,51,0,2.06,UY,1706620651
577,zonguldak,41.4514,31.7931,280.16,67,93,8.0,TR,1706620652
578,ust'-uda,54.1742,103.0304,241.22,100,23,0.83,RU,1706620653
579,kashgar,39.4707,75.9895,272.64,55,75,1.0,CN,1706620654
580,glendive,47.1053,-104.7125,278.8,93,0,2.57,US,1706620655
581,ciudad insurgentes,25.2635,-111.7744,290.6,64,100,2.4,MX,1706620656
582,dwarka,22.2394,68.9678,296.25,74,7,4.52,IN,1706620656
583,caloto,3.0359,-76.4079,295.55,79,100,0.34,CO,1706620657
584,manta,-0.9621,-80.7127,300.94,74,100,4.92,EC,1706620658
585,katsuren-haebaru,26.3329,127.874,294.31,69,100,3.6,JP,1706620659
586,dunedin,-45.8742,170.5036,285.26,86,48,2.77,NZ,1706620660
587,suntar,62.1444,117.6319,240.81,97,27,1.84,RU,1706620660
588,angaur state,6.906,134.13,300.51,85,100,8.87,PW,1706620661
589,tobelo,1.7284,128.0095,299.84,86,53,1.99,ID,1706620662
590,akjoujt,19.7466,-14.3853,302.36,7,0,7.84,MR,1706620663
591,djidiouia,35.9299,0.8287,291.23,62,100,0.96,DZ,1706620664
592,paciran,-6.8767,112.3761,298.25,93,100,1.07,ID,1706620664
593,manicore,-5.8092,-61.3003,301.35,75,50,1.53,BR,1706620429
594,nguigmi,14.2495,13.1092,300.41,18,100,6.3,NE,1706620647
595,mangrol,21.1227,70.1148,296.74,74,55,6.65,IN,1706620667
596,mount darwin,-16.7725,31.5838,298.52,62,100,2.54,ZW,1706620667
597,polyarnyy,69.1989,33.4478,272.79,75,100,11.69,RU,1706620668
